Name,Lat,Lon,CI60,CI50,CI40,CI30,CI20,CI10,Rank,Canton,Name,House2009, House1985, App2009, App1985, Tax2010
"Onex",46.183330,6.100000,25,23,21,17,10,1,11,GE,Onex,1585000,1208000,1019000,826000,13.70,
"Meyrin",46.234240,6.080250,0,0,0,0,0,0,18,GE,Meyrin,1485000,1131000,959000,777000,13.29,
"Carouge",46.180960,6.139210,46,38,34,24,15,2,10,GE,Carouge,1604000,1222000,1025000,831000,12.84,
"Le Grand-Saconnex",46.233330,6.133330,35,33,27,22,12,1,9,GE,Le Grand-Saconnex,1604000,1222000,1040000,843000,13.21,
"Versoix",46.283330,6.166670,25,23,21,16,10,0,8,GE,Versoix,1622000,1235000,1041000,843000,13.59,
"Nyon",46.383180,6.239550,63,56,46,36,22,5,23,VD,Nyon,1405000,1070000,927000,751000,13.96,
"Pully",46.510270,6.661830,124,113,90,60,37,2,17,VD,Pully,1487000,1132000,972000,788000,14.28,
"Yverdon-les-Bains",46.778520,6.641150,123,114,101,85,40,7,96,VD,Yverdon-les-Bains,879000,669000,600000,487000,15.03,
"Le Locle",47.056339,6.750385,51,45,32,23,17,4,129,NE,Le Locle,480000,366000,356000,288000,17.66,
"La Chaux-de-Fonds",47.097872,6.821634,60,49,43,39,22,4,125,NE,La Chaux-de-Fonds,661000,503000,481000,389000,17.66,
"Montreux",46.442352,6.905115,88,83,73,66,42,4,75,VD,Montreux,1025000,781000,691000,560000,14.35,
"Monthey",46.256423,6.957167,38,34,30,22,16,2,124,VS,Monthey,678000,517000,488000,395000,14.06,
"Martigny",46.102595,7.077055,64,55,47,33,18,7,126,VS,Martigny,645000,491000,465000,377000,13.27,
"Freiburg",46.801666,7.145568,124,109,97,76,39,4,105,FR,Freiburg,843000,643000,589000,478000,14.54,
"Biel",47.140187,7.243773,162,149,125,97,65,8,95,BE,Biel,887000,676000,616000,499000,14.86,
"Sitten",46.229352,7.362049,68,59,47,35,17,2,120,VS,Sitten,729000,555000,515000,418000,13.75,
"Lyss",47.074100,7.306550,134,128,110,92,56,5,101,BE,Lyss,857000,652000,600000,487000,15.09,
"Delsberg",47.363511,7.357060,93,81,67,49,25,4,128,JU,Delsberg,602000,458000,440000,357000,16.69,
"Grenchen",47.193585,7.395445,145,135,114,85,54,3,122,SO,Grenchen,716000,546000,513000,416000,14.72,
"Ittigen",46.974340,7.482810,220,197,164,133,68,8,76,BE,Ittigen,1024000,780000,690000,560000,13.95,
"Siders",46.291289,7.535480,62,57,47,32,18,1,127,VS,Siders,616000,469000,444000,360000,14.14,
"Ostermundigen",46.934560,7.504350,106,96,84,62,36,5,65,BE,Ostermundigen,1064000,810000,727000,590000,14.94,
"Worb",46.929840,7.563060,81,74,62,52,37,4,89,BE,Worb,921000,702000,640000,519000,14.89,
"Binningen",47.540210,7.569320,124,116,99,75,50,5,19,BL,Binningen,1453000,1107000,942000,764000,11.79,
"Thun",46.751180,7.621660,116,104,94,75,43,3,90,BE,Thun,921000,701000,638000,517000,15.29,
"Steffisburg",46.778070,7.632490,69,64,54,41,23,0,97,BE,Steffisburg,877000,668000,616000,500000,15.21,
"Burgdorf",47.057838,7.620387,127,114,98,76,43,6,106,BE,Burgdorf,840000,639000,590000,478000,14.87,
"Riehen",47.578840,7.646830,49,49,44,37,27,4,20,BS,Riehen,1439000,1096000,934000,757000,12.96,
"Spiez",46.684730,7.691110,102,93,83,68,35,4,91,BE,Spiez,914000,696000,633000,513000,15.00,
"Pratteln",47.520710,7.693560,119,109,87,72,45,2,66,BL,Pratteln,1061000,808000,725000,587000,13.25,
"Rheinfelden",47.566670,7.800000,76,66,60,45,23,2,77,AG,Rheinfelden,1022000,779000,705000,572000,12.69,
"Oftringen",47.316670,7.916670,172,163,143,115,76,9,111,AG,Oftringen,803000,612000,564000,457000,12.79,
"Brig-Glis",46.314244,7.986699,71,64,54,44,27,2,121,VS,Brig-Glis,725000,552000,518000,420000,13.27,
"Kriens",47.035370,8.276310,123,110,92,71,44,6,81,LU,Kriens,994000,757000,688000,558000,12.51,
"Emmen",47.079596,8.281228,92,84,73,57,30,2,94,LU,Emmen,900000,685000,627000,509000,12.84,
"Wohlen",47.351976,8.275728,98,88,78,58,39,4,100,AG,Wohlen,862000,656000,605000,490000,12.79,
"Baden",47.473767,8.306473,107,103,83,64,39,2,79,AG,Baden,1004000,765000,685000,555000,12.42,
"Ebikon",47.079370,8.340410,92,83,71,59,31,3,84,LU,Ebikon,978000,745000,671000,544000,12.40,
"Spreitenbach",47.420160,8.363010,122,111,102,74,46,2,92,AG,Spreitenbach,913000,696000,632000,512000,12.10,
"Wettingen",47.464216,8.326462,136,121,102,83,50,6,69,AG,Wettingen,1052000,801000,719000,583000,11.51,
"Cham",47.182130,8.463580,92,86,72,56,37,7,22,ZG,Cham,1420000,1081000,933000,757000,7.01,
"Arth",47.063272,8.521823,86,77,69,56,41,4,82,SZ,Arth,985000,751000,678000,549000,8.45,
"Baar",47.196250,8.529540,115,105,91,70,42,5,27,ZG,Baar,1368000,1042000,894000,724000,6.64,
"Zug",47.174589,8.513854,115,105,91,70,42,5,13,ZG,Zug,1552000,1182000,996000,807000,6.72,
"Adliswil",47.309970,8.524620,138,131,115,89,57,3,26,ZH,Adliswil,1370000,1043000,893000,724000,10.61,
"Thalwil",47.291750,8.563510,158,152,131,103,60,9,15,ZH,Thalwil,1548000,1179000,983000,797000,16,
"Zollikon",47.340190,8.574070,123,115,106,82,53,7,3,ZH,Zollikon,2147000,1635000,1318000,1068000,8.89,
"Schaffhausen",47.699925,8.641221,77,65,54,33,17,0,103,SH,Schaffhausen,852000,649000,598000,484000,13.32,
"Locarno",46.170860,8.799530,34,30,26,21,13,2,70,TI,Locarno,1040000,792000,702000,569000,11.83,
"Freienbach",47.205340,8.758420,122,114,98,78,46,6,12,SZ,Freienbach,1557000,1186000,1010000,818000,4.87,
"Lugano",46.010080,8.960040,34,32,25,18,10,1,71,TI,Lugano,1034000,787000,703000,607000,10.37,
"Wil",47.466502,9.045658,114,104,92,77,38,3,93,SG,Wil,910000,693000,622000,504000,13.14,
"Gossau",47.413807,9.257917,103,91,75,59,39,4,112,SG,Gossau,798000,608000,561000,454000,12.98,
"Amriswil",47.546629,9.295719,71,66,53,43,29,5,119,TG,Amriswil,737000,561000,525000,426000,13.82,
"Arbon",47.516719,9.431605,78,72,61,44,30,2,107,TG,Arbon,833000,635000,587000,476000,13.91,
"Altstätten",47.377791,9.549817,59,53,42,30,20,3,123,SG,Altstätten,694000,528000,496000,402000,14.80,
